[
  {
    "id": "school_001",
    "name": "Delhi Public School, Anand Vihar",
    "type": "school",
    "lat": 28.6469,
    "lng": 77.3155,
    "students": 1200,
    "staff": 120
  },
  {
    "id": "school_002",
    "name": "St. Mary's Senior School, Dwarka",
    "type": "school",
    "lat": 28.5921,
    "lng": 77.046,
    "students": 950,
    "staff": 95
  },
  {
    "id": "hospital_001",
    "name": "Max Healthcare, Saket",
    "type": "hospital",
    "lat": 28.5245,
    "lng": 77.206,
    "beds": 300,
    "staff": 450
  },
  {
    "id": "hospital_002",
    "name": "Apollo Hospital, Rohini",
    "type": "hospital",
    "lat": 28.7325,
    "lng": 77.1199,
    "beds": 450,
    "staff": 650
  },
  {
    "id": "construction_001",
    "name": "Okhla Phase II Construction",
    "type": "construction",
    "lat": 28.5355,
    "lng": 77.241,
    "workers": 300
  },
  {
    "id": "construction_002",
    "name": "Dwarka Expressway Project",
    "type": "construction",
    "lat": 28.5921,
    "lng": 77.046,
    "workers": 500
  }
]
